,City,Lat,Lng,Max Temp,Humidity,Cloudiness,Wind Speed,Country,Date
0,Qaqortoq,60.72,-46.03,42.8,41,0,2.24,GL,1601236435
1,Kahului,20.89,-156.47,84.2,54,20,13.87,US,1601236435
2,Bucerías,20.75,-105.33,89.01,70,20,9.17,MX,1601236436
3,Mitsamiouli,-11.38,43.28,76.69,77,11,14.07,KM,1601236436
4,Sørland,67.67,12.69,46.4,52,9,5.82,NO,1601236436
5,Kapaa,22.08,-159.32,84.2,66,40,10.29,US,1601236395
6,Huarmey,-10.07,-78.15,68.14,66,8,10.18,PE,1601236437
7,Osakarovka,50.56,72.57,38.32,76,0,1.63,KZ,1601236437
8,Cape Town,-33.93,18.42,52,76,20,4.7,ZA,1601236405
9,Saint George,37.1,-113.58,87.01,23,1,8.05,US,1601236246
10,Mataura,-46.19,168.86,35.01,95,100,5.99,NZ,1601236438
11,Scottsbluff,41.87,-103.67,62.6,25,20,26.4,US,1601236438
12,Port Alfred,-33.59,26.89,54.1,65,3,3.31,ZA,1601236438
13,Yellowknife,62.46,-114.35,46.4,81,90,11.41,CA,1601236438
14,Calvinia,-31.47,19.78,44.1,62,0,4.54,ZA,1601236439
15,Puerto Ayora,-0.74,-90.35,70,88,80,11.01,EC,1601236235
16,Adrar,20.5,-10.07,96.48,14,0,12.95,MR,1601236439
17,Port-Gentil,-0.72,8.78,77,78,40,10.29,GA,1601236439
18,Bambous Virieux,-20.34,57.76,73,83,40,11.41,MU,1601236440
19,Lachi,33.38,71.34,79.45,38,0,3.2,PK,1601236440
21,Nouadhibou,20.93,-17.03,75.2,73,0,21.92,MR,1601236440
22,Tessalit,20.2,1.01,90.27,11,0,3.94,ML,1601236440
23,Iqaluit,63.75,-68.51,33.8,74,75,10.29,CA,1601236441
24,Punta Arenas,-53.15,-70.92,53.6,50,75,24.16,CL,1601236417
25,Rikitea,-23.12,-134.97,74.25,81,1,13.24,PF,1601236255
26,Ntoum,0.38,9.78,78.8,78,40,9.17,GA,1601236441
27,Hella,67.2,14.43,52,62,61,26.4,NO,1601236441
28,Tuktoyaktuk,69.45,-133.04,37.4,93,90,5.82,CA,1601236442
32,Vestmannaeyjar,63.44,-20.27,47.73,79,92,19.91,IS,1601236442
34,Conceição do Araguaia,-8.26,-49.26,95.36,29,65,3.44,BR,1601236443
35,Ushuaia,-54.8,-68.3,44.6,56,75,17.22,AR,1601236443
36,Hermanus,-34.42,19.23,43,90,1,0.67,ZA,1601236443
37,Vaini,-21.2,-175.2,71.6,83,20,4.7,TO,1601236444
39,Busselton,-33.65,115.33,54,89,32,9.42,AU,1601236444
40,Maniitsoq,65.42,-52.9,36.54,80,12,10.31,GL,1601236444
41,San Jose,37.34,-121.89,89.01,20,40,17.22,US,1601236217
42,Vigrestad,58.57,5.7,57,99,1,3.6,NO,1601236445
43,Faanui,-16.48,-151.75,78.44,79,4,14.14,PF,1601236445
44,Chanal,16.72,-92.4,84.2,66,40,2.24,MX,1601236445
45,Bandarbeyla,9.49,50.81,76.69,83,51,19.39,SO,1601236445
46,Avarua,-21.21,-159.78,75.2,73,55,9.17,CK,1601236446
47,Dikson,73.51,80.55,37.42,77,100,26.37,RU,1601236446
48,Puerto Peñasco,31.32,-113.53,88,64,0,5.99,MX,1601236446
49,Qaanaaq,77.48,-69.36,14.04,78,0,6.31,GL,1601236447
50,Saint-Philippe,-21.36,55.77,68,64,100,5.82,RE,1601236447
51,Senador José Porfírio,-2.59,-51.95,87.93,57,100,0.83,BR,1601236447
52,Varhaug,58.61,5.65,57,99,1,3.31,NO,1601236447
53,Marau,-28.45,-52.2,80.82,70,80,2.89,BR,1601236448
54,Saldanha,-33.01,17.94,50,71,0,4.7,ZA,1601236448
55,Bako,5.78,36.57,65.62,84,100,3.49,ET,1601236448
56,Athabasca,54.72,-113.29,54.45,60,42,12.71,CA,1601236449
57,Pashkovskiy,45.02,39.11,73.99,56,8,13.42,RU,1601236449
58,Vaitape,-16.52,-151.75,79.27,78,4,13.98,PF,1601236449
59,Lewistown,40.6,-77.57,78.8,54,40,9.17,US,1601236449
60,Bredasdorp,-34.53,20.04,50,76,0,1.12,ZA,1601236450
61,Santa Isabel Rio Negro,-0.41,-65.02,93.22,45,39,1.7,BR,1601236450
62,Grindavik,63.84,-22.43,44.6,93,75,8.05,IS,1601236450
63,Kontagora,10.4,5.47,75.38,82,95,2.28,NG,1601236450
64,Hobyo,5.35,48.53,76.37,90,100,14.25,SO,1601236451
65,Bekovo,52.47,43.71,50.99,46,0,9.93,RU,1601236451
66,Hilo,19.73,-155.09,78.8,61,40,4.7,US,1601236394
67,Masaka,-0.33,31.73,67.05,87,65,5.79,UG,1601236451
68,Jamestown,42.1,-79.24,75.99,60,1,14.99,US,1601236451
69,Glenwood Springs,39.55,-107.32,66.2,42,1,14.99,US,1601236257
70,Ostrovnoy,68.05,39.51,40.14,82,20,7.87,RU,1601236452
71,Bethel,41.37,-73.41,77,65,75,6.93,US,1601236452
72,Hong Kong,22.29,114.16,80.01,88,100,1.01,HK,1601236366
73,Lebu,-37.62,-73.65,54.14,72,0,13.87,CL,1601236452
74,Trairi,-3.28,-39.27,79.81,70,0,14.74,BR,1601236453
75,Saint Paul Harbor,57.79,-152.41,48.2,87,90,9.17,US,1601236453
76,Upernavik,72.79,-56.15,28.58,96,100,8.57,GL,1601236454
77,Walvis Bay,-22.96,14.51,59,47,0,13.87,NA,1601236454
78,Killybegs,54.63,-8.45,57.2,100,90,9.17,IE,1601236454
81,Kalashnikovo,57.28,35.23,51.3,70,54,7.63,RU,1601236455
82,Torbay,47.67,-52.73,66,77,90,24.16,CA,1601236455
83,Seminole,28.71,-81.21,88,79,75,8.05,US,1601236423
84,Nueve de Julio,-35.44,-60.88,62.01,72,100,8.99,AR,1601236215
85,Hualmay,-11.1,-77.61,67.28,68,9,9.69,PE,1601236456
86,Pampa,35.54,-100.96,73.4,49,90,25.28,US,1601236456
87,Fairview,40.81,-74,82,61,90,3.36,US,1601236457
88,Aklavik,68.22,-135.01,33.8,86,75,2.24,CA,1601236457
89,Edd,13.93,41.69,88.43,68,100,4.72,ER,1601236457
90,Margate,51.38,1.39,55,90,100,4,GB,1601236457
91,Río Gallegos,-51.62,-69.22,64.4,22,75,20.8,AR,1601236402
92,Adwa,14.16,38.9,63.66,66,5,0.18,ET,1601236458
94,Castro,-24.79,-50.01,77.76,55,100,6.91,BR,1601236440
95,Bodden Town,19.28,-81.25,90,75,20,4.7,KY,1601236458
96,Sulphur Springs,33.14,-95.6,86,62,90,20.8,US,1601236458
98,Port-Cartier,50.03,-66.87,51.01,100,90,8.05,CA,1601236459
99,Cervo,43.67,-7.41,48.99,1,0,3.29,ES,1601236459
100,Ponta do Sol,32.67,-17.1,71.6,68,75,11.41,PT,1601236459
101,Mossamedes,-15.2,12.15,65.23,83,96,3.6,AO,1601236460
102,São Filipe,14.9,-24.5,80.4,82,34,6.38,CV,1601236460
103,Port Elizabeth,-33.92,25.57,51.8,71,0,5.86,ZA,1601236268
104,Praia da Vitória,38.73,-27.07,72,94,20,3.69,PT,1601236460
105,Sinnamary,5.38,-52.95,83.68,72,15,14.58,GF,1601236461
106,Marzuq,14.4,46.47,78.98,55,0,2.15,YE,1601236461
107,Olafsvik,64.89,-23.71,44.89,79,31,6.96,IS,1601236461
109,Hithadhoo,-0.6,73.08,82.8,67,100,4.32,MV,1601236462
110,Fortuna,40.6,-124.16,73.99,56,20,13.87,US,1601236379
111,Sydney,-33.87,151.21,50,71,20,6.93,AU,1601236260
112,Longyearbyen,78.22,15.64,33.8,89,75,14.99,SJ,1601236463
113,Atuona,-9.8,-139.03,78.31,73,0,14.58,PF,1601236463
114,Fairbanks,64.84,-147.72,51.01,66,1,11.41,US,1601236463
115,Den Helder,52.96,4.76,59,93,90,4.7,NL,1601236463
116,Clyde River,70.47,-68.59,28.4,86,90,10.29,CA,1601236464
117,Raudeberg,61.99,5.14,55,82,99,13.06,NO,1601236464
118,Camacha,33.08,-16.33,69.8,77,75,12.75,PT,1601236464
119,Colinas,-6.03,-44.25,96.48,24,84,2.51,BR,1601236464
120,Cape Canaveral,28.41,-80.6,87.8,62,20,9.17,US,1601236393
121,Neuquén,-38.95,-68.06,68,24,0,14.99,AR,1601236198
122,Kiruna,67.86,20.23,35.6,80,51,1.12,SE,1601236465
124,Piltene,57.22,21.67,62.6,72,0,9.17,LV,1601236465
125,Thompson,55.74,-97.86,42.8,93,90,11.41,CA,1601236466
126,Barrow,71.29,-156.79,32,95,90,11.41,US,1601236466
127,Kouroussa,10.65,-9.88,75.34,84,82,2.93,GN,1601236466
128,San Cristobal,7.77,-72.22,93.2,38,40,11.41,VE,1601236257
129,Homer,59.64,-151.55,51.8,62,75,25.28,US,1601236466
131,Norman Wells,65.28,-126.83,50,71,20,13.87,CA,1601236467
132,Codrington,-38.27,141.97,36.05,89,0,5.95,AU,1601236467
134,Bathsheba,13.22,-59.52,84.2,74,40,9.17,BB,1601236468
135,Açucena,-19.07,-42.55,85.3,36,0,6.69,BR,1601236468
136,Cockburn Town,21.46,-71.14,86,62,40,6.93,TC,1601236454
137,Winneba,5.35,-0.62,77,88,90,12.75,GH,1601236468
139,Neiafu,-18.65,-173.98,77,83,75,8.05,TO,1601236469
140,Puerto Carreño,6.19,-67.49,90.81,54,37,2.28,CO,1601236469
141,Lodja,-3.48,23.43,72.73,83,99,1.3,CD,1601236469
142,Ancud,-41.87,-73.82,53.01,81,100,9.55,CL,1601236469
143,Miandrivazo,-19.52,45.47,76.68,62,40,2.37,MG,1601236470
144,Valera,9.32,-70.6,82.49,63,60,2.3,VE,1601236470
145,Narsaq,60.92,-46.05,42.8,41,0,2.24,GL,1601236470
146,Cabo San Lucas,22.89,-109.91,91.4,70,5,13.87,MX,1601236457
147,El Salto,20.33,-104.5,80.01,64,3,4,MX,1601236471
148,Las Vegas,36.17,-115.14,93,15,1,8.77,US,1601236265
149,East London,-33.02,27.91,58.24,56,95,2.55,ZA,1601236471
150,Tautira,-17.73,-149.15,84.2,70,20,6.93,PF,1601236471
151,North Bend,43.41,-124.22,73,60,1,10.29,US,1601236472
152,Ribeira Grande,38.52,-28.7,73.4,78,40,4.7,PT,1601236472
153,Zhanakorgan,43.91,67.25,53.73,42,0,18.07,KZ,1601236472
154,Markala,13.7,-6.07,86.95,48,0,8.46,ML,1601236473
155,Mazara del Vallo,37.66,12.59,71.01,56,40,25.28,IT,1601236473
157,Agirish,61.92,63.02,50.95,91,91,6.29,RU,1601236473
158,Port Hardy,50.7,-127.42,53.6,87,75,14.99,CA,1601236474
159,Hamilton,39.18,-84.53,79,54,75,13.87,US,1601236474
160,Cayenne,4.93,-52.33,87.8,62,2,9.17,GF,1601236351
162,Saint-François,46.42,3.91,50,93,100,11.41,FR,1601236475
164,Mandera,3.94,41.87,87.75,39,22,17.69,KE,1601236475
165,Half Moon Bay,37.46,-122.43,87.01,60,1,9.17,US,1601236401
166,Al Bardīyah,31.76,25.09,76.14,84,0,11.88,LY,1601236476
167,Kanniyākumāri,8.08,77.57,79.57,85,3,14.72,IN,1601236477
168,Ongandjera,-17.88,15.07,70.47,19,0,13.24,NA,1601236477
169,Mar del Plata,-38,-57.56,54,93,90,13.87,AR,1601236354
170,Mehamn,71.04,27.85,44.6,74,76,11.41,NO,1601236477
171,Sabha,27.04,14.43,86.76,14,0,9.46,LY,1601236478
172,Aasiaat,68.71,-52.87,26.78,95,68,2.08,GL,1601236478
173,Provideniya,64.38,-173.3,37.4,74,90,15.66,RU,1601236478
174,Klaksvík,62.23,-6.59,46.4,93,100,17.22,FO,1601236478
175,Philadelphia,39.95,-75.16,81,65,75,3.36,US,1601236340
176,Enna,37.56,14.29,61,90,0,7,IT,1601236479
177,Pitimbu,-7.47,-34.81,82.4,69,20,13.87,BR,1601236479
178,Henties Bay,-22.12,14.28,55.99,77,0,5.01,NA,1601236479
179,Lüderitz,-26.65,15.16,55.26,64,0,19.06,NA,1601236480
180,Caravelas,-17.71,-39.25,76.84,69,0,8.61,BR,1601236480
181,Touros,-5.2,-35.46,82.4,69,20,13.87,BR,1601236480
182,Oranjemund,-28.55,16.43,55.71,74,0,7.2,NA,1601236480
184,Lompoc,34.64,-120.46,78.01,64,1,10.29,US,1601236208
185,Kalabo,-14.97,22.68,79.93,17,0,4.43,ZM,1601236481
186,Monrovia,6.3,-10.8,78.8,88,75,7.45,LR,1601236482
187,Coquimbo,-29.95,-71.34,60.8,63,0,13.87,CL,1601236320
188,Cap Malheureux,-19.98,57.61,73,77,84,5.01,MU,1601236482
189,Guapimirim,-22.54,-42.98,98.6,30,0,6.93,BR,1601236482
190,Lagoa,39.05,-27.98,71.15,86,43,6.04,PT,1601236482
191,Lively,46.43,-81.15,70,68,90,19.46,CA,1601236483
192,Crotone,39.09,17.12,69.8,73,40,26.4,IT,1601236483
193,Bayeux,-7.12,-34.93,82.4,69,20,13.87,BR,1601236483
194,Aswān,24.09,32.91,87.75,21,0,10.27,EG,1601236484
195,Kruisfontein,-34,24.73,50,73,0,4.54,ZA,1601236484
196,Karaton,-6.34,106.1,77,88,20,4.7,ID,1601236484
197,Yarkovo,57.4,67.08,47.64,95,35,4.25,RU,1601236485
198,São Raimundo das Mangabeiras,-7.02,-45.48,99.05,20,61,6.38,BR,1601236485
199,Yar-Sale,66.83,70.83,38.7,86,0,12.57,RU,1601236485
200,Buraidah,26.33,43.98,89.6,24,0,6.93,SA,1601236486
201,Bathurst,-33.42,149.58,34,96,0,1.99,AU,1601236217
202,Kitob,39.08,66.83,56.37,32,6,2.24,UZ,1601236486
203,Kabare,-2.47,28.82,65.03,81,100,0.98,CD,1601236486
204,Bönen,51.6,7.77,51.8,87,40,4.7,DE,1601236487
205,Cidreira,-30.18,-50.21,67.51,92,100,9.55,BR,1601236487
206,Zaozyornoye,45.16,33.28,67.28,57,63,6.98,UA,1601236487
207,Eureka,40.8,-124.16,80.01,49,1,14.99,US,1601236390
208,Fredericksburg,38.3,-77.46,77,78,90,3.36,US,1601236368
209,Aquiraz,-3.9,-38.39,82.4,65,11,14.99,BR,1601236488
211,Ketchikan,55.34,-131.65,51.8,100,90,28.86,US,1601236461
212,Lavrentiya,65.58,-171,34.61,86,22,13.09,RU,1601236488
213,Pangai,-19.8,-174.35,75.2,73,75,12.75,TO,1601236489
214,Santa Fe,-31.63,-60.7,70,47,7,11.01,AR,1601236489
215,Rovaniemi,66.5,25.72,42.8,100,90,10.29,FI,1601236490
216,Turbat,26,63.04,78.44,49,0,1.48,PK,1601236490
218,Kempele,64.91,25.5,53.6,93,100,10.29,FI,1601236490
219,‘Āhuimanu,21.44,-157.84,82.99,65,40,8.05,US,1601236245
220,Marawi,8,124.29,75.99,92,90,3,PH,1601236491
222,Tasiilaq,65.61,-37.64,35.6,93,99,4.7,GL,1601236492
223,Termini Imerese,37.98,13.7,69.01,70,27,5.01,IT,1601236492
224,Nioro,13.35,-15.75,78.04,93,90,5.75,GM,1601236492
225,Labytnangi,66.66,66.42,39.87,75,0,11.56,RU,1601236492
226,Culpeper,38.5,-77.97,77,61,90,4.7,US,1601236493
227,College,64.86,-147.8,51.01,70,40,6.93,US,1601236493
228,Pemberton,50.32,-122.8,50,76,90,3.36,CA,1601236323
229,Fort Nelson,58.81,-122.7,46.4,87,75,7.81,CA,1601236493
230,Acaraú,-2.89,-40.12,80.73,65,27,20,BR,1601236494
231,La Ronge,55.1,-105.28,48.2,66,75,16.11,CA,1601236494
232,Wexford,52.33,-6.46,57,93,75,4.7,IE,1601236494
233,Huntington,38.42,-82.45,81,57,75,5.82,US,1601236494
234,Whitehorse,60.72,-135.05,39.99,86,90,16.11,CA,1601236352
235,Almeirim,-1.52,-52.58,92.46,44,79,3.06,BR,1601236495
236,Eyl,7.98,49.82,76.75,83,61,14.03,SO,1601236495
237,Quatre Cocos,-20.21,57.76,73,83,40,11.41,MU,1601236495
238,Departamento de Maldonado,-34.67,-54.92,62.6,93,90,10.29,UY,1601236496
239,Antofagasta,-23.65,-70.4,60.8,67,20,14.99,CL,1601236320
240,Karlovasi,37.79,26.7,75.2,69,20,7.38,GR,1601236496
241,Pabianice,51.66,19.35,51.01,87,75,4.7,PL,1601236496
242,Liverpool,53.41,-2.98,50,71,91,3.36,GB,1601236462
243,Makakilo City,21.35,-158.09,82.4,61,1,6.93,US,1601236456
244,Presidencia Roque Sáenz Peña,-26.79,-60.44,65.01,66,100,5.17,AR,1601236497
245,Goderich,43.75,-81.72,80.01,70,100,14.27,CA,1601236393
246,Santa Maria,-29.68,-53.81,68,94,75,3.36,BR,1601236497
247,Puerto López,4.08,-72.96,89.01,55,5,5.28,CO,1601236498
248,Chui,-33.7,-53.46,66.34,94,99,6.51,UY,1601236498
249,Prince Rupert,54.32,-130.32,55.4,87,90,26.4,CA,1601236498
250,Eyrarbakki,63.86,-21.15,46.4,75,40,9.17,IS,1601236498
251,Gebre Guracha,9.8,38.4,53.02,78,3,5.79,ET,1601236499
252,Navashino,55.53,42.2,50.29,67,40,7.14,RU,1601236499
253,Tiarei,-17.53,-149.33,84.2,70,20,6.93,PF,1601236499
254,Arraial do Cabo,-22.97,-42.03,87.8,65,1,14.99,BR,1601236499
255,Cabedelo,-6.98,-34.83,82.4,69,20,13.87,BR,1601236500
256,North Platte,41.12,-100.77,66.2,32,1,25.28,US,1601236500
257,Carutapera,-1.2,-46.02,81.93,71,17,10.8,BR,1601236500
258,Nuuk,64.18,-51.72,37.4,74,68,10.29,GL,1601236500
259,Dauphin,51.15,-100.05,53.6,71,90,13.87,CA,1601236501
260,Sambava,-14.27,50.17,71.76,86,59,6.91,MG,1601236501
261,Karaman Province,37.08,33.25,62.71,49,0,0.6,TR,1601236501
262,São Raimundo Nonato,-9.02,-42.7,93.42,22,100,6.73,BR,1601236502
263,George Town,5.41,100.34,78.8,88,20,4.7,MY,1601236502
264,Menongue,-14.66,17.69,73.04,21,93,2.98,AO,1601236502
265,Casablanca,33.59,-7.62,69.8,77,40,12.75,MA,1601236389
266,Oddur,4.12,43.89,75.18,70,34,15.12,SO,1601236503
267,Kikwit,-5.04,18.82,74.19,85,89,2.66,CD,1601236503
268,Camacupa,-12.02,17.48,73.98,42,10,5.5,AO,1601236503
269,Warrington,53.39,-2.58,50,71,45,3.36,GB,1601236504
270,Guerrero Negro,27.98,-114.06,80.22,50,0,10.07,MX,1601236504
272,Souillac,-20.52,57.52,71.6,83,40,11.41,MU,1601236504
273,Hūn,29.13,15.95,90.48,15,0,8.55,LY,1601236505
274,Giohar,2.78,45.5,77.59,74,45,14.92,SO,1601236505
275,Balkanabat,39.51,54.37,68.31,22,99,12.75,TM,1601236505
276,Balezino,57.98,53.01,47.17,89,0,4.7,RU,1601236505
277,Poltava,49.59,34.54,63.57,79,62,13.78,UA,1601236506
278,Kudahuvadhoo,2.67,72.89,82.38,69,0,2.17,MV,1601236506
279,Mahébourg,-20.41,57.7,71.6,83,40,11.41,MU,1601236506
280,Moyale,3.52,39.06,76.96,46,8,7.27,KE,1601236506
281,Pisco,-13.7,-76.22,69.8,60,2,9.17,PE,1601236507
282,Puerto Nariño,-3.77,-70.38,93.2,56,40,6.93,CO,1601236507
284,Constitución,-35.33,-72.42,59.56,60,0,15.68,CL,1601236507
285,Esim,4.87,-2.24,76.24,89,4,10.45,GH,1601236508
286,Saurimo,-9.66,20.39,74.75,43,5,4.94,AO,1601236508
287,La Paz,-16.5,-68.15,60.8,49,40,11.41,BO,1601236267
288,Portobelo,9.55,-79.65,75.2,88,75,5.82,PA,1601236508
289,Tiznit Province,29.58,-9.5,73.9,48,0,1.43,MA,1601236509
290,San Quintín,30.48,-115.95,74.98,60,0,9.13,MX,1601236509
291,Alofi,-19.06,-169.92,75.2,83,65,17.22,NU,1601236509
292,Bakhmach,51.18,32.76,61.48,84,100,13.4,UA,1601236510
293,Portales,34.19,-103.33,89.01,23,1,11.41,US,1601236510
294,Olden,61.84,6.81,52,76,75,1.12,NO,1601236510
295,Faya,18.39,42.45,73.4,13,0,9.17,SA,1601236510
296,Kemijärvi,66.71,27.43,44.42,96,100,7.09,FI,1601236511
297,Richards Bay,-28.78,32.04,61.21,92,100,11.74,ZA,1601236511
298,Ortaköy,38.74,34.04,64.4,48,0,5.82,TR,1601236511
299,Cherepovets,59.13,37.9,41,93,0,8.39,RU,1601236511
300,Beyneu,45.32,55.2,50.56,55,0,7.96,KZ,1601236512
301,Templin,53.12,13.5,50,83,100,4.5,DE,1601236512
302,Sedona,34.87,-111.76,89.6,11,1,11.41,US,1601236512
303,Santa Cruz de la Sierra,-17.8,-63.17,93.2,49,40,13.87,BO,1601236226
304,Orange Walk District,17.83,-88.83,93,70,75,6.93,BZ,1601236513
305,Beira,-19.84,34.84,74.62,88,0,5.28,MZ,1601236513
306,Rawson,-43.3,-65.1,57.02,39,0,8.61,AR,1601236513
307,Sinjār,36.32,41.88,81.14,21,0,12.41,IQ,1601236513
310,Necochea,-38.55,-58.74,51.01,98,100,5.99,AR,1601236514
311,Mehrān,33.12,46.16,69.8,35,0,2.24,IR,1601236514
312,Mitchell,43.71,-98.03,69.8,26,40,27.51,US,1601236327
313,Yenagoa,4.92,6.26,74.23,93,86,4.12,NG,1601236515
314,Bonthe,7.53,-12.51,77.92,87,100,6.85,SL,1601236515
315,Vila Velha,-20.33,-40.29,82.4,65,1,18.34,BR,1601236515
316,Røros,62.57,11.38,44.6,100,94,9.17,NO,1601236515
317,Honningsvåg,70.98,25.97,44.6,56,49,13.87,NO,1601236516
318,Acapulco de Juárez,16.86,-99.89,84.2,74,90,4.7,MX,1601236339
319,Taoudenni,22.68,-3.98,98.42,9,0,5.55,ML,1601236516
320,Los Llanos de Aridane,28.66,-17.92,75.2,69,75,16.11,ES,1601236516
322,Pangnirtung,66.15,-65.71,35.6,74,20,16.11,CA,1601236517
323,Santa Cruz del Sur,20.71,-78,87.48,64,14,0.54,CU,1601236517
324,Ibrā’,22.69,58.53,78.91,49,51,3.4,OM,1601236517
325,Nanortalik,60.14,-45.24,38.34,81,39,12.86,GL,1601236517
326,Pacific Grove,36.62,-121.92,88,35,1,3.36,US,1601236518
327,Vardø,70.37,31.11,41,68,0,14.99,NO,1601236518
328,Sitka,57.05,-135.33,53.6,87,75,21.92,US,1601236518
329,Contamana,-7.33,-75.02,99.19,28,1,5.64,PE,1601236518
330,Pochutla,15.74,-96.47,79,78,90,11.41,MX,1601236519
331,São João da Barra,-21.64,-41.05,86,51,72,14.99,BR,1601236519
332,Belmonte,-15.86,-38.88,80.6,61,40,16.11,BR,1601236519
333,Concord,37.98,-122.03,90,21,1,10.29,US,1601236283
334,Juru,5.31,100.44,78.8,88,20,3.04,MY,1601236520
335,Nemours,48.28,2.69,57.2,93,90,12.75,FR,1601236520
336,Ankazobe,-18.32,47.12,60.8,87,20,5.82,MG,1601236520
337,Marquette,46.53,-87.63,69.01,62,100,4,US,1601236520
338,Panama City,8.99,-79.52,75.2,94,75,5.82,PA,1601236356
339,Santiago del Estero,-27.8,-64.26,79.88,18,0,17.07,AR,1601236521
341,Abhar,36.15,49.22,51.87,81,0,8.16,IR,1601236521
343,Rabo de Peixe,37.8,-25.58,71.6,83,40,6.93,PT,1601236522
344,Natal,-5.79,-35.21,82.4,69,20,18.34,BR,1601236293
345,Eirunepé,-6.66,-69.87,94.95,37,74,2.75,BR,1601236522
346,Doha,25.29,51.53,91,70,0,3.36,QA,1601236418
347,Senanga,-16.12,23.27,79.43,17,31,1.7,ZM,1601236522
348,Thinadhoo,0.53,72.93,83.28,63,100,2.26,MV,1601236523
349,Tūkrah,32.53,20.58,81.86,52,0,7.85,LY,1601236523
351,Atar,20.52,-13.05,94.87,19,0,9.93,MR,1601236523
352,Requena,39.49,-1.1,62.01,36,0,1.99,ES,1601236286
353,Strezhevoy,60.73,77.59,50,93,99,4.47,RU,1601236524
354,Constantine,36.37,6.61,57.2,76,40,2.24,DZ,1601236524
355,Atbasar,51.8,68.33,44.04,70,72,3.94,KZ,1601236524
356,Minyar,55.07,57.55,47.3,87,100,0.78,RU,1601236524
357,Siderno,38.28,16.3,71.6,94,40,14.99,IT,1601236525
358,Meghraj,23.5,73.5,75.74,73,0,5.23,IN,1601236525
359,San Felipe,10.34,-68.74,87.3,66,100,4.52,VE,1601236525
360,Nikolskoye,59.7,30.79,59,81,1,6.71,RU,1601236525
361,San Patricio,19.22,-104.7,89.6,75,75,6.15,MX,1601236526
362,Ogaminana,7.59,6.22,74.59,85,68,1.88,NG,1601236526
363,Saint Anthony,45.02,-93.22,64.99,48,40,12.75,US,1601236526
364,Boddam,57.47,-1.78,45,93,100,3.36,GB,1601236526
365,Jesolo,45.53,12.64,55.99,82,75,14.99,IT,1601236527
366,Sur,22.57,59.53,83.19,55,0,12.12,OM,1601236527
367,St. George's,12.06,-61.75,78.8,88,75,5.82,GD,1601236527
368,Madaoua,14.07,5.96,90.36,39,49,10.16,NE,1601236527
369,Ahmadpur,18.7,76.93,71.89,82,99,3.65,IN,1601236528
370,Kralendijk,12.15,-68.27,89.6,62,75,9.17,BQ,1601236528
371,Vredendal,-31.67,18.5,51.58,66,0,7.87,ZA,1601236528
372,Mana,5.66,-53.78,84.18,72,94,11.88,GF,1601236528
374,Lockhart,28.62,-81.44,91,62,90,6.78,US,1601236303
375,Arrondissement de Saint-Denis,48.92,2.33,57.2,87,90,10.29,FR,1601236529
376,Urengoy,65.97,78.37,39.54,73,68,22.03,RU,1601236529
377,Santa Cruz,30.42,-9.6,71.6,68,0,9.17,MA,1601236529
378,Chapais,49.78,-74.85,64.4,88,90,18.34,CA,1601236530
379,Lufilufi,-13.87,-171.6,84.2,62,20,4.7,WS,1601236530
380,Aksarka,66.56,67.8,38.95,80,0,7.31,RU,1601236530
381,Snåase,64.25,12.38,53.6,76,36,9.17,NO,1601236530
383,Tefé,-3.35,-64.71,89.6,59,40,9.17,BR,1601236531
384,Akçaabat,41.02,39.57,75.2,69,29,10.31,TR,1601236244
385,Trelew,-43.25,-65.31,62.51,30,0,7.56,AR,1601236248
386,Hudson Bay,52.85,-102.38,50.47,61,96,12.86,CA,1601236531
387,Opuwo,-18.06,13.84,61.21,32,0,5.12,NA,1601236532
388,Galveston,29.37,-94.97,88,66,1,13.87,US,1601236532
389,Torquay,50.46,-3.51,50,82,49,9.31,GB,1601236532
390,Rafai,4.95,23.92,71.11,97,100,1.7,CF,1601236532
391,Cambrils,41.07,1.05,64.99,36,93,9.17,ES,1601236533
392,Makkah al Mukarramah,21.43,39.83,84.94,46,0,2.28,SA,1601236281
393,Santoña,43.44,-3.46,62.01,67,75,3.36,ES,1601236533
394,Zaokskiy,54.73,37.41,52.5,52,76,11.16,RU,1601236533
395,Altamira,-3.2,-52.21,89.6,59,40,4.7,BR,1601236343
396,Ilulissat,69.22,-51.1,33.8,69,13,8.05,GL,1601236534
397,Mayo,38.89,-76.51,78.01,88,90,5.82,US,1601236313
398,Praia,14.92,-23.51,82.4,78,20,4.7,CV,1601236534
399,Fare,-16.7,-151.02,79,79,0,14.45,PF,1601236534
400,Santa Vitória do Palmar,-33.52,-53.37,66.9,93,96,6.2,BR,1601236535
401,Cauquenes,-35.97,-72.32,65.71,46,0,6.53,CL,1601236535
402,Loandjili,-4.76,11.86,75.2,88,90,6.93,CG,1601236535
403,Batouri,4.43,14.37,69.08,97,82,2.82,CM,1601236535
404,Voyvozh,62.89,54.96,49.33,97,100,3.18,RU,1601236536
405,Coyhaique,-45.58,-72.07,51.8,57,90,6.93,CL,1601236536
406,Cantaura,9.31,-64.36,82.9,75,96,6.64,VE,1601236536
407,Raja,8.46,25.68,70.29,93,84,2.3,SS,1601236536
408,Turmalina,-17.29,-42.73,87.39,24,0,5.37,BR,1601236537
409,Ploemeur,47.73,-3.43,52,71,0,5.82,FR,1601236537
410,Syracuse,37.09,15.28,69.8,88,40,3.36,IT,1601236537
411,Bayburt,40.26,40.23,57.72,50,0,1.39,TR,1601236356
412,Daşoguz,41.84,59.97,50,38,100,9.17,TM,1601236538
415,Gwadar,25.12,62.33,81.84,73,0,4.38,PK,1601236538
416,Kailua,21.4,-157.74,82.99,65,40,8.05,US,1601236518
417,Fresnillo,23.17,-102.88,77,27,40,7.23,MX,1601236539
418,Qasigiannguit,68.82,-51.19,33.8,69,42,8.05,GL,1601236539
419,San Ignacio,17.16,-89.07,93,63,20,6.93,BZ,1601236539
420,Loknya,56.83,30.15,55.18,69,0,9.33,RU,1601236539
421,Teahupoo,-17.83,-149.27,84.2,70,20,6.93,PF,1601236539
422,Abhā,18.22,42.51,73.4,13,0,9.17,SA,1601236540
423,Joaquim Gomes,-9.14,-35.75,78.8,78,75,11.41,BR,1601236540
424,Forssa,60.81,23.62,57.99,78,0,1.01,FI,1601236540
425,Georgiyevka,43.04,74.71,44.6,52,0,4.47,KZ,1601236540
426,Waddān,29.16,16.14,89.51,16,7,7.07,LY,1601236541
427,Peniche,39.36,-9.38,64,80,0,10,PT,1601236541
428,Pedernales,18.04,-71.74,89.6,59,20,16.11,DO,1601236541
429,Bodītī,6.97,37.87,58.5,86,20,0.96,ET,1601236542
430,Taos,36.41,-105.57,78.8,14,1,21.92,US,1601236431
431,San Juan Capistrano,33.5,-117.66,82,67,41,3,US,1601236542
433,Kumëny,58.11,49.92,47.5,85,0,5.95,RU,1601236543
434,Supe,-10.8,-77.73,66.87,69,13,9.22,PE,1601236543
435,Taltal,-25.4,-70.48,62.6,54,22,6.51,CL,1601236543
436,Sokolo,14.73,-6.12,90.39,35,47,3.53,ML,1601236543
437,Venado Tuerto,-33.75,-61.97,63,69,46,18.99,AR,1601236544
438,Bhopal,23.27,77.4,73.17,84,1,6.08,IN,1601236499
439,Gallup,35.53,-108.74,82.4,10,1,12.75,US,1601236544
440,Formosa,-26.18,-58.18,69.8,77,90,16.11,AR,1601236544
442,Ucluelet,48.93,-125.55,60.01,82,90,5.82,CA,1601236249
443,Fallon,39.47,-118.78,70,28,20,5.82,US,1601236545
444,Ixtapa,20.7,-105.2,89.01,70,20,9.17,MX,1601236409
445,Safita,34.82,36.12,75.2,78,0,2.24,SY,1601236545
446,Storslett,69.77,21.02,39.69,71,9,12.86,NO,1601236545
447,Abū Zabad,12.35,29.25,79.02,67,31,6.22,SD,1601236546
448,Champerico,14.3,-91.92,87.8,74,40,13.87,GT,1601236546
449,Timbiquí,2.77,-77.67,82.26,73,32,6.42,CO,1601236546
450,Agadez,19.75,10.25,88.43,14,100,4.65,NE,1601236546
451,Zasechnoye,53.11,45.08,52,37,0,8.43,RU,1601236547
452,Urucará,-2.54,-57.76,93.9,40,86,3.38,BR,1601236547
454,Adolfo López Mateos,28.47,-107.3,81,29,42,3,MX,1601236547
455,Roald,62.58,6.13,53.6,87,40,4.7,NO,1601236548
456,Lethem,3.38,-59.8,90.09,52,69,5.48,GY,1601236548
457,Sillod,20.3,75.65,70.93,84,97,6.58,IN,1601236548
458,Severnoye,56.35,78.36,39.99,93,0,5.03,RU,1601236548
459,Safford,32.83,-109.71,95,14,1,14.99,US,1601236549
460,Kavaratti,10.57,72.64,81.1,80,27,8.34,IN,1601236549
461,Montrose,38.42,-108.27,70,28,8,13,US,1601236549
462,Hofn,64.25,-15.21,50.38,97,100,18.52,IS,1601236549
463,Freudenstadt,48.43,8.42,44.01,87,0,1.28,DE,1601236550
464,Tombouctou,20,-3,97.43,9,0,1.43,ML,1601236550
465,Malaya Vishera,58.85,32.22,54.7,66,0,7.16,RU,1601236550
466,Tuzha,57.61,47.94,48.58,81,61,4.32,RU,1601236550
467,Concarneau,47.88,-3.92,51.8,81,0,3.36,FR,1601236551
468,Araouane,18.9,-3.53,98.65,10,0,2.95,ML,1601236551
469,Algiers,36.75,3.04,66.2,77,40,3.36,DZ,1601236252
470,Tayoltita,24.08,-105.93,88.18,37,0,5.91,MX,1601236551
471,Salalah,17.02,54.09,78.8,83,75,3.36,OM,1601236552
472,Copiapó,-27.37,-70.33,60.8,63,0,12.75,CL,1601236552
473,Umm Kaddadah,13.6,26.69,85.42,53,49,8.79,SD,1601236552
475,Uncia,-18.47,-66.57,53.17,44,78,12.24,BO,1601236552
476,Kenai,60.55,-151.26,52,66,1,23.04,US,1601236553
477,Locri,38.24,16.26,71.6,94,40,14.99,IT,1601236553
479,Dharmadam,11.78,75.43,77.09,87,97,5.28,IN,1601236553
480,Avera,33.19,-82.53,73,73,90,4.7,US,1601236554
481,Mumford,5.26,-0.76,75.85,90,3,13.31,GH,1601236554
482,San Juan,-31.54,-68.54,71.04,22,0,11.1,AR,1601236554
483,Lovozero,68,35.01,37.31,87,1,8.97,RU,1601236554
484,Aventura,25.96,-80.14,90,62,40,11.41,US,1601236324
485,Surgut,61.25,73.42,50,100,55,8.95,RU,1601236308
486,Suamico,44.63,-88.04,62.6,77,90,6.93,US,1601236555
487,Dingle,11,122.67,76.59,86,78,3.33,PH,1601236555
488,Kangaba,11.93,-8.42,79.3,70,0,3.51,ML,1601236556
489,Brodnica,53.26,19.4,54,87,100,1.99,PL,1601236556
490,Vila Franca do Campo,37.72,-25.43,71.6,83,40,6.93,PT,1601236556
491,Kérouané,9.27,-9.02,71.55,90,64,0.94,GN,1601236556
492,Mongo,12.18,18.69,80.04,70,68,3.31,TD,1601236557
493,Lalibela,12.03,39.03,58.98,62,8,7.11,ET,1601236557
494,Gull Lake,50.1,-108.48,55.4,43,20,25.28,CA,1601236557
495,Marovoay,-16.1,46.63,77,83,18,10.29,MG,1601236557
496,São Gabriel da Cachoeira,-0.13,-67.09,82.4,74,75,6.93,BR,1601236558
497,Verkhnyaya Toyma,62.23,45,50.14,92,38,2.53,RU,1601236558
498,Alpena,45.06,-83.43,69.8,73,1,4.7,US,1601236471
499,Cametá,-2.24,-49.5,88.02,59,86,3.44,BR,1601236558
500,Baharly,38.44,57.43,59.7,30,90,3,TM,1601236559
501,Keta,5.92,0.99,78.8,78,20,9.17,GH,1601236559
502,Kilindoni,-7.91,39.67,77.58,85,0,12.97,TZ,1601236559
503,Capim Grosso,-11.38,-40.01,86.94,29,0,8.21,BR,1601236559
504,Lahaina,20.88,-156.68,84.2,58,90,11.41,US,1601236467
505,Glenluce,54.88,-4.81,48.99,84,89,4.23,GB,1601236560
506,Rincon,32.3,-81.24,80.6,69,75,5.82,US,1601236519
507,Maku,39.29,44.45,66.36,40,0,2.01,IR,1601236560
508,Brae,60.4,-1.35,48.2,93,100,3.65,GB,1601236560
509,Alto Araguaia,-17.31,-53.22,93.97,22,46,4.92,BR,1601236338
510,West Bay,19.37,-81.42,90,75,20,4.7,KY,1601236561
511,Kletskaya,49.31,43.06,55.99,35,72,1.99,RU,1601236561
512,Icod de los Vinos,28.37,-16.71,75,81,16,1.99,ES,1601236561
513,Andros Town,24.7,-77.77,80.6,88,75,6.93,BS,1601236562
514,Najrān,17.49,44.13,80.6,18,24,6.93,SA,1601236562
515,Helena,46.59,-112.04,59,35,20,17.22,US,1601236472
516,Manhuaçu,-20.26,-42.03,82.45,43,21,2.26,BR,1601236562
517,Nortelândia,-14.45,-56.8,95.09,32,62,4.83,BR,1601236563
518,Stromness,58.97,-3.3,41,93,100,5.82,GB,1601236563
519,Ailigandí,9.23,-78.02,82.13,81,100,9.62,PA,1601236563
520,Pindushi,62.92,34.58,51.13,92,7,3.76,RU,1601236563
521,São Sepé,-30.16,-53.57,68,94,75,3.36,BR,1601236564
522,Kano,12,8.52,80.6,83,52,3.36,NG,1601236564
523,Pimenta Bueno,-11.67,-61.19,93.11,37,83,4.7,BR,1601236564
524,Kita,13.03,-9.49,78.89,70,0,2.33,ML,1601236565
525,Mutoko,-17.4,32.23,75.27,30,31,9.66,ZW,1601236565
526,Kidal,18.44,1.41,94.12,12,0,2.3,ML,1601236565
527,Iralaya,15,-83.23,89.6,70,40,4.7,HN,1601236565
528,Xai-Xai,-25.05,33.64,70.43,90,100,11.05,MZ,1601236566
529,Klintsy,52.76,32.24,56.05,87,100,12.95,RU,1601236413
